var mapLocations = [
	{
		name: 'Forn Baluard',
		lat: 41.380003,
		lon: 2.189012
	},
	{
		name: 'Picasso Museum',
		lat: 41.387097,
		lon: 2.180893
	},
	{
		name: 'Picasso Museum',
		lat: 41.382218,
		lon: 2.171752
	},
	{
		name: 'La Boqueria',
		lat: 41.383716,
		lon: 2.170572
	},
	{
		name: 'Fundació Antoni Tàpies',
		lat: 41.392023,
		lon: 2.163792
	},
	{
		name: 'Cafe Godot',
		lat: 41.401021,
		lon: 2.160358
	},
	{
		name: 'Park Güell',
		lat: 41.414974,
		lon: 2.152698
	},
	{
		name: 'Pl de la Virreina',
		lat: 41.40469,
		lon: 2.157269
	},
	{
		name: 'Taverna El Glop',
		lat: 41.405382,
		lon: 2.159543
	},
];